{"type":"FeatureCollection","metadata":{"source":"Compilado de Wikipedia + CAMMESA + Secretaría de Energía","license":"CC BY-SA","note":"Coordenadas verificadas con páginas oficiales/IGN. Solo represas hidroeléctricas ≥ 50 MW"},"features":[{"type":"Feature","properties":{"name":"Yacyretá","river":"Paraná","province":"Corrientes","country":"ARG-PAR","mw":3100,"year":1994,"basin_id":"alto_parana","binacional":true,"reservoir":"Embalse Yacyretá","kind":"hidroeléctrica"},"geometry":{"type":"Point","coordinates":[-56.738,-27.482]}},{"type":"Feature","properties":{"name":"Salto Grande","river":"Uruguay","province":"Entre Ríos","country":"ARG-URU","mw":1890,"year":1979,"basin_id":"uruguay","binacional":true,"reservoir":"Embalse Salto Grande","kind":"hidroeléctrica"},"geometry":{"type":"Point","coordinates":[-57.918,-31.272]}},{"type":"Feature","properties":{"name":"Piedra del Águila","river":"Limay","province":"Neuquén / Río Negro","mw":1400,"year":1992,"basin_id":"negro_limay","reservoir":"Embalse Piedra del Águila","kind":"hidroeléctrica"},"geometry":{"type":"Point","coordinates":[-70.075,-40.064]}},{"type":"Feature","properties":{"name":"El Chocón","river":"Limay","province":"Neuquén / Río Negro","mw":1260,"year":1973,"basin_id":"negro_limay","reservoir":"Embalse Ezequiel Ramos Mexía","kind":"hidroeléctrica"},"geometry":{"type":"Point","coordinates":[-68.778,-39.275]}},{"type":"Feature","properties":{"name":"Alicurá","river":"Limay","province":"Neuquén / Río Negro","mw":1050,"year":1985,"basin_id":"negro_limay","reservoir":"Embalse Alicurá","kind":"hidroeléctrica"},"geometry":{"type":"Point","coordinates":[-70.755,-40.554]}},{"type":"Feature","properties":{"name":"Río Grande (Cerro Pelado)","river":"Tercero (Ctalamochita)","province":"Córdoba","mw":750,"year":1986,"basin_id":"sierras_pampeanas","reservoir":"Embalse Cerro Pelado","kind":"hidroeléctrica reversible"},"geometry":{"type":"Point","coordinates":[-64.972,-32.785]}},{"type":"Feature","properties":{"name":"Futaleufú (Amutui Quimey)","river":"Futaleufú","province":"Chubut","mw":560,"year":1978,"basin_id":"chubut","reservoir":"Embalse Amutui Quimey","kind":"hidroeléctrica","note":"Provee electricidad a la planta de aluminio ALUAR"},"geometry":{"type":"Point","coordinates":[-71.737,-42.927]}},{"type":"Feature","properties":{"name":"Planicie Banderita (Cerros Colorados)","river":"Neuquén","province":"Neuquén","mw":472,"year":1978,"basin_id":"negro_limay","reservoir":"Embalse Los Barreales","kind":"hidroeléctrica"},"geometry":{"type":"Point","coordinates":[-69.054,-39.06]}},{"type":"Feature","properties":{"name":"Pichi Picún Leufú","river":"Limay","province":"Neuquén / Río Negro","mw":285,"year":2000,"basin_id":"negro_limay","reservoir":"Embalse Pichi Picún Leufú","kind":"hidroeléctrica"},"geometry":{"type":"Point","coordinates":[-70.06,-39.83]}},{"type":"Feature","properties":{"name":"Los Reyunos","river":"Diamante","province":"Mendoza","mw":224,"year":1983,"basin_id":"cuyo","reservoir":"Embalse Los Reyunos","kind":"hidroeléctrica"},"geometry":{"type":"Point","coordinates":[-68.77,-34.66]}},{"type":"Feature","properties":{"name":"El Chañar","river":"Neuquén","province":"Neuquén","mw":144,"year":1980,"basin_id":"negro_limay","reservoir":"Embalse El Chañar","kind":"hidroeléctrica"},"geometry":{"type":"Point","coordinates":[-68.566,-38.64]}},{"type":"Feature","properties":{"name":"Agua del Toro","river":"Diamante","province":"Mendoza","mw":150,"year":1976,"basin_id":"cuyo","reservoir":"Embalse Agua del Toro","kind":"hidroeléctrica"},"geometry":{"type":"Point","coordinates":[-68.94,-34.66]}},{"type":"Feature","properties":{"name":"Arroyito","river":"Limay","province":"Neuquén / Río Negro","mw":128,"year":1979,"basin_id":"negro_limay","reservoir":"Embalse Arroyito","kind":"hidroeléctrica de pasada"},"geometry":{"type":"Point","coordinates":[-68.789,-39.131]}},{"type":"Feature","properties":{"name":"Los Caracoles","river":"San Juan","province":"San Juan","mw":121,"year":2009,"basin_id":"cuyo","reservoir":"Embalse Los Caracoles","kind":"hidroeléctrica"},"geometry":{"type":"Point","coordinates":[-69.21,-31.475]}},{"type":"Feature","properties":{"name":"Potrerillos","river":"Mendoza","province":"Mendoza","mw":120,"year":2003,"basin_id":"cuyo","reservoir":"Embalse Potrerillos","kind":"hidroeléctrica"},"geometry":{"type":"Point","coordinates":[-69.18,-32.99]}},{"type":"Feature","properties":{"name":"Cabra Corral (Gral. Belgrano)","river":"Juramento","province":"Salta","mw":102,"year":1972,"basin_id":"salado_norte","reservoir":"Embalse Cabra Corral","kind":"hidroeléctrica"},"geometry":{"type":"Point","coordinates":[-65.4,-25.27]}},{"type":"Feature","properties":{"name":"El Nihuil I","river":"Atuel","province":"Mendoza","mw":73,"year":1947,"basin_id":"cuyo","reservoir":"Embalse El Nihuil","kind":"hidroeléctrica"},"geometry":{"type":"Point","coordinates":[-68.674,-35.044]}},{"type":"Feature","properties":{"name":"Punta Negra","river":"San Juan","province":"San Juan","mw":62,"year":2014,"basin_id":"cuyo","reservoir":"Embalse Punta Negra","kind":"hidroeléctrica"},"geometry":{"type":"Point","coordinates":[-68.95,-31.55]}},{"type":"Feature","properties":{"name":"Florentino Ameghino","river":"Chubut","province":"Chubut","mw":60,"year":1968,"basin_id":"chubut","reservoir":"Embalse Florentino Ameghino","kind":"hidroeléctrica"},"geometry":{"type":"Point","coordinates":[-66.45,-43.71]}},{"type":"Feature","properties":{"name":"Casa de Piedra","river":"Colorado","province":"La Pampa / Río Negro","mw":60,"year":1996,"basin_id":"colorado","reservoir":"Embalse Casa de Piedra","kind":"hidroeléctrica"},"geometry":{"type":"Point","coordinates":[-67.157,-38.23]}},{"type":"Feature","properties":{"name":"Quebrada de Ullum","river":"San Juan","province":"San Juan","mw":45,"year":1980,"basin_id":"cuyo","reservoir":"Dique Ullum","kind":"hidroeléctrica"},"geometry":{"type":"Point","coordinates":[-68.652,-31.471]}},{"type":"Feature","properties":{"name":"Río Hondo","river":"Dulce","province":"Santiago del Estero","mw":17,"year":1969,"basin_id":"salado_norte","reservoir":"Embalse Río Hondo","kind":"hidroeléctrica + termoabastecimiento"},"geometry":{"type":"Point","coordinates":[-64.852,-27.51]}}]}